City_ID,City,Country,Lat,Lng,Max Temp,Humidity,Cloudiness,Wind Speed,Current Description,Date
0,Araguacu,BR,-12.9306,-49.8264,82.26,72,100,5.73,overcast clouds,2021-11-06 17:34:24
1,Klaksvik,FO,62.2266,-6.589,49.12,98,100,19.62,overcast clouds,2021-11-06 17:34:25
2,Nabire,ID,-3.3667,135.4833,75.88,90,100,1.77,overcast clouds,2021-11-06 17:34:26
3,Ust-Nera,RU,64.5667,143.2,-16.85,94,27,5.08,scattered clouds,2021-11-06 17:34:26
4,Visby,SE,57.6409,18.296,49.86,81,20,9.22,few clouds,2021-11-06 17:34:27
5,Voh,NC,-20.9667,164.7,65.77,83,54,2.33,broken clouds,2021-11-06 17:34:28
6,Vilhena,BR,-12.7406,-60.1458,77.22,78,75,11.5,broken clouds,2021-11-06 17:34:28
7,Tiksi,RU,71.6872,128.8694,-4.59,94,71,13.06,broken clouds,2021-11-06 17:34:28
8,Kapaa,US,22.0752,-159.319,75.52,81,20,13.8,few clouds,2021-11-06 17:34:29
9,East London,ZA,-33.0153,27.9116,67.14,77,20,9.22,few clouds,2021-11-06 17:34:29
10,Aras,ES,42.5617,-2.356,43.32,74,15,8.84,few clouds,2021-11-06 17:34:30
11,Lakshmeshwar,IN,15.1333,75.4667,73.69,69,59,5.14,broken clouds,2021-11-06 17:34:30
12,Likasi,CD,-10.9814,26.7333,74.8,30,57,1.59,broken clouds,2021-11-06 17:34:30
13,Rikitea,PF,-23.1203,-134.9692,75.27,82,100,16.22,overcast clouds,2021-11-06 17:34:31
14,Saint-Philippe,RE,-21.3585,55.7679,74.79,79,46,8.14,scattered clouds,2021-11-06 17:34:31
15,Svetlyy,RU,54.675,20.1347,50.05,85,100,20.69,overcast clouds,2021-11-06 17:34:32
16,Emerald,AU,-23.5333,148.1667,73.54,73,63,9.22,broken clouds,2021-11-06 17:34:32
17,Medea,DZ,36.2642,2.7539,45.05,90,99,5.03,overcast clouds,2021-11-06 17:34:33
18,Haines Junction,CA,60.7522,-137.5108,19.35,93,100,0.0,overcast clouds,2021-11-06 17:34:33
19,San Policarpo,PH,12.1791,125.5072,81.57,84,100,13.8,overcast clouds,2021-11-06 17:34:34
20,Punta Arenas,CL,-53.15,-70.9167,53.71,62,90,14.97,light intensity shower rain,2021-11-06 17:32:51
21,Ushuaia,AR,-54.8,-68.3,47.86,53,75,14.97,broken clouds,2021-11-06 17:34:34
22,Georgetown,MY,5.4112,100.3354,80.53,92,40,5.01,light rain,2021-11-06 17:34:35
23,Port Macquarie,AU,-31.4333,152.9167,60.76,92,94,9.82,overcast clouds,2021-11-06 17:34:35
24,Baiyin,CN,36.5583,104.2081,16.68,40,98,2.75,overcast clouds,2021-11-06 17:34:35
25,Musiri,IN,10.9333,78.45,82.44,94,100,5.91,overcast clouds,2021-11-06 17:34:36
26,Hailin,CN,44.5833,129.4167,28.4,81,100,5.06,snow,2021-11-06 17:34:37
27,Atuona,PF,-9.8,-139.0333,77.95,77,36,18.34,light rain,2021-11-06 17:34:37
28,Tuktoyaktuk,CA,69.4541,-133.0374,19.4,79,90,18.41,overcast clouds,2021-11-06 17:34:38
29,Santa Rosa Del Sur,CO,7.9644,-74.0544,81.09,68,89,0.87,overcast clouds,2021-11-06 17:34:38
30,Chokurdakh,RU,70.6333,147.9167,5.36,96,100,8.46,light snow,2021-11-06 17:34:38
31,Polovinnoye,RU,54.7914,65.9864,31.01,53,96,16.82,overcast clouds,2021-11-06 17:34:39
32,Havelock,US,34.8791,-76.9013,64.38,83,90,7.0,overcast clouds,2021-11-06 17:31:49
33,Palmas,BR,-10.2128,-48.3603,84.07,70,75,8.05,broken clouds,2021-11-06 17:34:40
34,Sakakah,SA,29.9697,40.2064,72.97,30,0,8.61,clear sky,2021-11-06 17:34:40
35,Qaanaaq,GL,77.484,-69.3632,7.52,72,99,7.74,overcast clouds,2021-11-06 17:34:41
36,Constitucion,CL,-35.3333,-72.4167,60.3,60,38,6.8,scattered clouds,2021-11-06 17:31:25
37,Mataura,NZ,-46.1927,168.8643,50.49,95,71,0.58,broken clouds,2021-11-06 17:34:41
38,Nouadhibou,MR,20.931,-17.0347,75.18,53,0,16.11,clear sky,2021-11-06 17:34:42
39,Bogorodskoye,RU,56.55,37.8833,42.48,80,67,15.21,broken clouds,2021-11-06 17:34:42
40,Anakapalle,IN,17.6833,83.0167,78.75,84,100,4.05,overcast clouds,2021-11-06 17:34:43
41,San Patricio,US,28.017,-97.5169,70.21,44,0,5.26,clear sky,2021-11-06 17:34:43
42,Carnarvon,AU,-24.8667,113.6333,64.47,72,0,20.71,clear sky,2021-11-06 17:34:43
43,Thunder Bay,CA,48.4001,-89.3168,52.29,83,90,5.75,overcast clouds,2021-11-06 17:33:58
44,Yerbogachen,RU,61.2767,108.0108,14.31,95,97,6.33,overcast clouds,2021-11-06 17:34:44
45,Jiayuguan,CN,39.8167,98.3,8.92,48,0,6.51,clear sky,2021-11-06 17:34:45
46,Ratnapura,LK,6.6828,80.3992,75.02,95,98,2.46,light rain,2021-11-06 17:34:45
47,Provideniya,RU,64.3833,-173.3,8.51,82,9,6.2,clear sky,2021-11-06 17:34:45
48,Nanortalik,GL,60.1432,-45.2371,33.55,80,100,8.93,overcast clouds,2021-11-06 17:34:46
49,Arraial Do Cabo,BR,-22.9661,-42.0278,76.96,60,20,12.66,few clouds,2021-11-06 17:34:46
50,Albany,US,42.6001,-73.9662,51.67,52,13,1.01,few clouds,2021-11-06 17:34:47
51,Maniitsoq,GL,65.4167,-52.9,28.11,69,99,11.07,overcast clouds,2021-11-06 17:34:47
52,New Norfolk,AU,-42.7826,147.0587,53.1,60,80,3.0,broken clouds,2021-11-06 17:34:48
53,Hilo,US,19.7297,-155.09,80.28,75,1,8.05,clear sky,2021-11-06 17:33:44
54,Bambous Virieux,MU,-20.3428,57.7575,76.21,83,40,11.5,scattered clouds,2021-11-06 17:34:48
55,Kiunga,PG,-6.1219,141.2906,73.38,99,100,1.95,overcast clouds,2021-11-06 17:34:49
56,Bergen,NO,60.392,5.328,48.65,90,75,13.8,light rain,2021-11-06 17:34:49
57,Hofn,IS,64.2539,-15.2082,39.11,81,100,14.7,light rain,2021-11-06 17:34:49
58,Ahipara,NZ,-35.1667,173.1667,56.73,94,11,2.73,few clouds,2021-11-06 17:34:50
59,Kodiak,US,57.79,-152.4072,33.31,60,40,11.5,scattered clouds,2021-11-06 17:33:58
60,Port Alfred,ZA,-33.5906,26.891,63.12,83,100,4.32,light rain,2021-11-06 17:34:50
61,Odweyne,SO,9.4092,45.064,72.77,48,47,9.46,scattered clouds,2021-11-06 17:34:51
62,Gondanglegi,ID,-7.7479,112.0132,77.77,88,99,1.99,overcast clouds,2021-11-06 17:34:51
63,Belmonte,BR,-15.8631,-38.8828,82.4,84,75,9.31,broken clouds,2021-11-06 17:34:52
64,Shenzhen,CN,22.5455,114.0683,79.21,93,19,2.42,few clouds,2021-11-06 17:31:47
65,Nhulunbuy,AU,-12.2333,136.7667,81.21,83,22,5.75,few clouds,2021-11-06 17:34:53
66,Luderitz,NA,-26.6481,15.1594,63.07,67,99,25.97,overcast clouds,2021-11-06 17:34:53
67,Chuy,UY,-33.6971,-53.4616,66.09,54,97,13.78,overcast clouds,2021-11-06 17:34:53
68,Busselton,AU,-33.65,115.3333,46.09,84,0,9.46,clear sky,2021-11-06 17:34:54
69,Saint-Georges,GD,12.0564,-61.7485,87.48,62,20,23.02,few clouds,2021-11-06 17:34:54
70,Uvalde,US,29.3669,-99.767,67.19,45,1,3.44,clear sky,2021-11-06 17:34:55
71,Vao,NC,-22.6667,167.4833,67.35,63,12,6.62,few clouds,2021-11-06 17:34:55
72,Beloha,MG,-25.1667,45.05,69.26,70,95,16.73,overcast clouds,2021-11-06 17:34:56
73,Butaritari,KI,3.0707,172.7902,81.86,72,100,15.73,overcast clouds,2021-11-06 17:34:56
74,Coxim,BR,-18.5067,-54.76,87.03,55,79,9.93,light rain,2021-11-06 17:34:56
75,Birjand,IR,32.8663,59.2211,46.87,76,40,4.61,scattered clouds,2021-11-06 17:34:57
76,Cape Town,ZA,-33.9258,18.4232,63.27,61,20,1.99,few clouds,2021-11-06 17:30:24
77,Bredasdorp,ZA,-34.5322,20.0403,61.92,51,95,8.05,overcast clouds,2021-11-06 17:34:57
78,Ferme-Neuve,CA,46.7001,-75.4493,49.78,60,22,9.89,few clouds,2021-11-06 17:34:58
79,La Ronge,CA,55.1001,-105.2842,39.45,87,90,5.75,light intensity drizzle,2021-11-06 17:30:52
80,Fort Nelson,CA,58.8053,-122.7002,31.59,93,90,3.44,snow,2021-11-06 17:30:01
81,Kalabo,ZM,-14.97,22.6814,87.24,24,80,5.01,broken clouds,2021-11-06 17:34:14
82,Hermanus,ZA,-34.4187,19.2345,60.91,66,52,6.46,broken clouds,2021-11-06 17:34:59
83,Saskylakh,RU,71.9167,114.0833,7.45,90,100,14.27,overcast clouds,2021-11-06 17:34:59
84,Blagoyevo,RU,63.3667,47.9167,38.88,92,100,7.72,overcast clouds,2021-11-06 17:35:00
85,Puerto Ayora,EC,-0.7393,-90.3518,78.76,71,63,11.45,broken clouds,2021-11-06 17:35:00
86,Cherskiy,RU,68.75,161.3,2.12,84,77,10.22,broken clouds,2021-11-06 17:35:01
87,Halesowen,GB,52.4486,-2.0494,55.2,87,86,20.31,overcast clouds,2021-11-06 17:35:02
88,Jamestown,US,42.097,-79.2353,51.03,44,1,5.99,clear sky,2021-11-06 17:33:52
89,Ribeira Grande,PT,38.5167,-28.7,72.0,83,40,23.02,scattered clouds,2021-11-06 17:35:03
90,Pevek,RU,69.7008,170.3133,-6.11,90,82,8.1,broken clouds,2021-11-06 17:35:04
91,Aswan,EG,24.0934,32.907,84.22,22,0,10.58,clear sky,2021-11-06 17:35:05
92,Dingle,PH,10.9995,122.6711,76.98,92,99,5.82,heavy intensity rain,2021-11-06 17:35:05
93,San Juan Del Sur,NI,11.2529,-85.8705,86.22,66,40,6.91,scattered clouds,2021-11-06 17:35:06
94,Nacala,MZ,-14.5428,40.6728,75.04,88,6,3.94,clear sky,2021-11-06 17:35:06
95,Edgewater,US,28.9889,-80.9023,70.0,77,75,17.27,broken clouds,2021-11-06 17:35:07
96,Kailua,US,21.4022,-157.7394,77.74,76,20,9.22,few clouds,2021-11-06 17:35:07
97,Norman Wells,CA,65.282,-126.8329,24.84,93,75,2.3,broken clouds,2021-11-06 17:35:08
98,Salalah,OM,17.0151,54.0924,76.69,73,37,1.61,scattered clouds,2021-11-06 17:35:08
99,Upernavik,GL,72.7868,-56.1549,13.3,83,19,10.04,few clouds,2021-11-06 17:35:09
100,Channel-Port Aux Basques,CA,47.5702,-59.1367,44.31,67,87,22.1,overcast clouds,2021-11-06 17:30:52
101,Namibe,AO,-15.1961,12.1522,70.59,82,96,8.28,overcast clouds,2021-11-06 17:35:10
102,Barrow,US,71.2906,-156.7887,12.22,79,20,12.66,few clouds,2021-11-06 17:35:01
103,Vaini,TO,-21.2,-175.2,73.56,94,40,4.61,scattered clouds,2021-11-06 17:35:10
104,Henties Bay,NA,-22.116,14.2845,60.24,82,21,10.02,few clouds,2021-11-06 17:35:11
105,Tilichiki,RU,60.4667,166.1,22.14,95,99,2.53,overcast clouds,2021-11-06 17:35:11
106,Thompson,CA,55.7435,-97.8558,30.36,93,90,8.05,light snow,2021-11-06 17:35:12
107,Saldanha,ZA,-33.0117,17.9442,62.65,71,98,19.08,overcast clouds,2021-11-06 17:35:12
108,Kavieng,PG,-2.5744,150.7967,83.12,74,65,15.95,broken clouds,2021-11-06 17:35:13
109,Trincomalee,LK,8.5711,81.2335,78.33,87,97,10.18,moderate rain,2021-11-06 17:35:13
110,The Valley,AI,18.217,-63.0578,87.66,62,20,13.8,few clouds,2021-11-06 17:35:13
111,Baruun-Urt,MN,46.6806,113.2792,10.27,41,34,9.17,scattered clouds,2021-11-06 17:35:14
112,Sola,VU,-13.8833,167.55,80.19,75,94,9.84,overcast clouds,2021-11-06 17:35:14
113,Hobart,AU,-42.8794,147.3294,53.46,70,90,4.0,overcast clouds,2021-11-06 17:31:30
114,Kenai,US,60.5544,-151.2583,33.15,95,90,3.44,light snow,2021-11-06 17:35:15
115,Preobrazheniye,RU,42.9019,133.9064,45.41,79,88,8.34,overcast clouds,2021-11-06 17:35:15
116,Vilyuysk,RU,63.7553,121.6247,2.55,99,100,2.75,overcast clouds,2021-11-06 17:35:16
117,Adamovka,RU,51.5223,59.9396,28.72,29,96,11.65,overcast clouds,2021-11-06 17:35:16
118,Ambon,ID,-3.6954,128.1814,75.34,94,20,5.75,few clouds,2021-11-06 17:35:17
119,Daugavpils,LV,55.8833,26.5333,45.61,78,98,14.36,overcast clouds,2021-11-06 17:35:17
120,Khatanga,RU,71.9667,102.5,11.59,93,100,13.44,overcast clouds,2021-11-06 17:35:17
121,Kashin,RU,57.3592,37.6081,40.71,93,84,12.84,broken clouds,2021-11-06 17:35:18
122,Zhanaozen,KZ,43.3,52.8,36.75,19,0,10.56,clear sky,2021-11-06 17:35:18
123,Tasiilaq,GL,65.6145,-37.6368,26.76,71,76,6.89,broken clouds,2021-11-06 17:35:19
124,Finschhafen,PG,-6.6024,147.8681,78.03,79,17,2.33,few clouds,2021-11-06 17:35:19
125,Esperance,AU,-33.8667,121.9,49.84,75,0,5.1,clear sky,2021-11-06 17:35:20
126,Atar,MR,20.5169,-13.0499,88.03,18,0,10.04,clear sky,2021-11-06 17:35:20
127,Port Elizabeth,ZA,-33.918,25.5701,64.09,88,75,5.75,broken clouds,2021-11-06 17:31:56
128,Tsaratanana,MG,-16.7833,47.65,83.28,50,80,3.98,broken clouds,2021-11-06 17:35:21
129,Avarua,CK,-21.2078,-159.775,73.45,73,40,5.75,scattered clouds,2021-11-06 17:35:21
130,Bayir,TR,37.2687,28.2167,59.52,37,29,3.42,scattered clouds,2021-11-06 17:35:22
131,Mar Del Plata,AR,-38.0023,-57.5575,55.42,79,0,8.99,clear sky,2021-11-06 17:35:22
132,Kilindoni,TZ,-7.9139,39.6668,80.6,78,47,13.6,scattered clouds,2021-11-06 17:35:22
133,Cap Malheureux,MU,-19.9842,57.6142,76.46,77,33,5.01,scattered clouds,2021-11-06 17:35:23
134,Ekhabi,RU,53.5102,142.9671,25.59,86,100,23.09,snow,2021-11-06 17:35:23
135,Hithadhoo,MV,-0.6,73.0833,82.42,76,100,14.12,overcast clouds,2021-11-06 17:35:24
136,Lieto,FI,60.5103,22.4618,42.96,91,40,8.05,scattered clouds,2021-11-06 17:35:24
137,Changji,CN,44.0167,87.3167,20.19,73,0,6.71,clear sky,2021-11-06 17:35:24
138,Poum,NC,-20.2333,164.0167,73.56,67,79,6.17,broken clouds,2021-11-06 17:35:25
139,Oussouye,SN,12.485,-16.5469,95.18,55,32,8.77,scattered clouds,2021-11-06 17:35:25
140,Pedasi,PA,7.5333,-80.0333,81.84,72,66,2.17,broken clouds,2021-11-06 17:35:26
141,Maceio,BR,-9.6658,-35.7353,92.64,62,20,16.11,few clouds,2021-11-06 17:35:26
142,Ushibuka,JP,32.1906,130.0228,63.01,80,91,10.89,overcast clouds,2021-11-06 17:35:27
143,Sao Joao Da Barra,BR,-21.6403,-41.0511,78.89,69,84,13.11,broken clouds,2021-11-06 17:35:27
144,Broken Hill,AU,-31.95,141.4333,64.11,82,75,13.8,broken clouds,2021-11-06 17:35:27
145,Nikolskoye,RU,59.7035,30.7861,39.87,91,66,6.11,broken clouds,2021-11-06 17:35:28
146,Bafq,IR,31.6128,55.4107,52.61,41,51,5.77,broken clouds,2021-11-06 17:35:28
147,Dikson,RU,73.5069,80.5464,16.0,93,100,14.32,overcast clouds,2021-11-06 17:35:29
148,Sisimiut,GL,66.9395,-53.6735,20.1,66,39,12.06,scattered clouds,2021-11-06 17:35:29
149,Mount Vernon,US,40.9126,-73.8371,55.67,46,20,4.0,few clouds,2021-11-06 17:35:29
150,Alta Floresta,BR,-9.8756,-56.0861,84.02,70,75,6.91,broken clouds,2021-11-06 17:35:30
151,Douglas,US,41.3,-96.167,61.86,72,1,3.0,clear sky,2021-11-06 17:33:17
152,Nemuro,JP,43.3236,145.575,49.1,76,50,15.26,scattered clouds,2021-11-06 17:35:31
153,Tapes,BR,-30.6733,-51.3958,65.7,87,99,15.21,overcast clouds,2021-11-06 17:35:31
154,Pafos,CY,34.7667,32.4167,71.38,49,0,6.91,clear sky,2021-11-06 17:35:11
155,Ayan,RU,56.45,138.1667,14.95,59,66,19.57,broken clouds,2021-11-06 17:35:32
156,Tselinnoye,RU,53.0833,85.6667,21.29,84,100,9.24,overcast clouds,2021-11-06 17:35:32
157,Bluff,NZ,-46.6,168.3333,50.81,87,78,2.39,broken clouds,2021-11-06 17:35:33
158,Puerto Narino,CO,-3.7703,-70.3831,89.55,73,86,1.16,overcast clouds,2021-11-06 17:35:34
159,Am Timan,TD,11.0297,20.2827,89.28,27,57,4.52,broken clouds,2021-11-06 17:35:34
160,Vohibinany,MG,-17.35,49.0333,71.65,94,47,1.41,light rain,2021-11-06 17:35:35
161,Hirara,JP,24.8,125.2833,77.2,75,92,12.91,overcast clouds,2021-11-06 17:35:35
162,Mahebourg,MU,-20.4081,57.7,76.24,83,40,11.5,scattered clouds,2021-11-06 17:35:35
163,Praia,CV,14.9215,-23.5087,84.74,58,40,19.57,scattered clouds,2021-11-06 17:35:36
164,Lebu,CL,-37.6167,-73.65,58.06,76,39,12.86,scattered clouds,2021-11-06 17:35:36
165,Jaisalmer,IN,26.9147,70.9181,78.96,20,51,5.79,broken clouds,2021-11-06 17:35:37
166,Geraldton,AU,-28.7667,114.6,59.41,77,19,10.36,few clouds,2021-11-06 17:31:11
167,Namwala,ZM,-15.7504,26.4384,85.1,20,96,6.33,overcast clouds,2021-11-06 17:35:37
168,Ponta Delgada,PT,37.7333,-25.6667,70.52,78,20,18.41,few clouds,2021-11-06 17:35:38
169,Charyshskoye,RU,51.3978,83.5598,21.72,91,99,3.27,overcast clouds,2021-11-06 17:35:38
170,Marsabit,KE,2.3284,37.9899,76.96,41,35,14.09,scattered clouds,2021-11-06 17:35:39
171,Te Anau,NZ,-45.4167,167.7167,45.05,87,61,0.49,broken clouds,2021-11-06 17:35:39
172,Nara,JP,34.6851,135.8049,60.08,55,100,3.4,overcast clouds,2021-11-06 17:35:40
173,Padre Bernardo,BR,-15.35,-48.5,91.76,32,99,3.6,overcast clouds,2021-11-06 17:35:40
174,Lincoln,US,40.8,-96.667,62.01,67,1,3.0,clear sky,2021-11-06 17:35:40
175,Daru,PG,-9.0763,143.2092,78.98,86,46,7.34,scattered clouds,2021-11-06 17:35:41
176,Malartic,CA,48.1335,-78.1328,51.62,69,77,12.15,broken clouds,2021-11-06 17:35:41
177,Rio Grande,BR,-32.035,-52.0986,69.91,66,95,17.78,overcast clouds,2021-11-06 17:31:21
178,Dengzhou,CN,37.8086,120.7508,55.67,88,64,15.52,broken clouds,2021-11-06 17:35:42
179,Itarema,BR,-2.9248,-39.9167,87.39,58,41,15.93,scattered clouds,2021-11-06 17:35:42
180,Talnakh,RU,69.4865,88.3972,12.34,94,100,15.17,light snow,2021-11-06 17:35:43
181,Namatanai,PG,-3.6667,152.4333,78.62,77,61,9.13,broken clouds,2021-11-06 17:35:43
182,Marawi,PH,7.9986,124.2928,69.66,95,95,0.74,overcast clouds,2021-11-06 17:35:44
183,Padang,ID,-0.9492,100.3543,75.25,92,100,4.05,moderate rain,2021-11-06 17:35:44
184,Tokmak,UA,47.2514,35.7058,56.08,73,100,12.24,overcast clouds,2021-11-06 17:35:45
185,Sobolevo,RU,54.4299,31.8996,44.94,78,97,20.04,light rain,2021-11-06 17:35:45
186,Aripuana,BR,-9.1667,-60.6333,75.76,90,100,2.33,overcast clouds,2021-11-06 17:35:45
187,Monrovia,LR,6.3005,-10.7969,74.97,77,38,8.61,scattered clouds,2021-11-06 17:35:46
188,Vanimo,PG,-2.6741,141.3028,76.51,91,66,5.32,broken clouds,2021-11-06 17:35:46
189,Necochea,AR,-38.5473,-58.7368,62.04,42,81,13.09,broken clouds,2021-11-06 17:35:47
190,Okhotsk,RU,59.3833,143.3,19.11,94,100,22.48,snow,2021-11-06 17:35:47
191,Boyolangu,ID,-8.1181,111.8935,76.86,89,97,2.64,overcast clouds,2021-11-06 17:35:47
192,Kaitangata,NZ,-46.2817,169.8464,49.93,81,77,2.77,broken clouds,2021-11-06 17:35:48
193,Castro,BR,-24.7911,-50.0119,77.34,68,53,6.04,broken clouds,2021-11-06 17:35:48
194,Juruti,BR,-2.1522,-56.0922,94.84,41,78,0.76,broken clouds,2021-11-06 17:35:49
195,Qunduz,AF,36.729,68.857,43.34,30,3,2.26,clear sky,2021-11-06 17:34:27
196,Kruisfontein,ZA,-34.0033,24.7314,61.88,71,96,3.44,overcast clouds,2021-11-06 17:31:40
197,Saint-Joseph,RE,-21.3667,55.6167,73.78,78,33,9.28,scattered clouds,2021-11-06 17:35:50
198,Lorengau,PG,-2.0226,147.2712,81.68,78,62,8.81,broken clouds,2021-11-06 17:35:50
199,Laguna,US,38.421,-121.4238,61.65,88,1,1.01,clear sky,2021-11-06 17:32:23
200,Kupang,ID,-10.1667,123.5833,80.56,82,30,4.45,scattered clouds,2021-11-06 17:35:51
201,Comodoro Rivadavia,AR,-45.8667,-67.5,85.86,9,0,13.8,clear sky,2021-11-06 17:35:51
202,Coihaique,CL,-45.5752,-72.0662,68.61,30,0,10.36,clear sky,2021-11-06 17:31:27
203,Tual,ID,-5.6667,132.75,83.35,72,91,1.54,overcast clouds,2021-11-06 17:35:52
204,Peniche,PT,39.3558,-9.3811,60.28,71,0,15.26,clear sky,2021-11-06 17:35:52
205,Bethel,US,41.3712,-73.414,53.02,49,1,1.01,clear sky,2021-11-06 17:35:53
206,Antrim,GB,54.6667,-6.25,52.14,76,75,19.57,broken clouds,2021-11-06 17:35:53
207,Manihari,IN,25.35,87.6333,68.13,65,36,3.11,scattered clouds,2021-11-06 17:35:54
208,Tanda,IN,26.55,82.65,67.21,55,84,4.09,broken clouds,2021-11-06 17:35:54
209,Victor Harbor,AU,-35.5667,138.6167,57.29,69,95,9.91,overcast clouds,2021-11-06 17:35:54
210,Kadirli,TR,37.3739,36.0961,68.88,29,0,4.72,clear sky,2021-11-06 17:35:55
211,Torbay,CA,47.6666,-52.7314,41.29,79,75,17.27,broken clouds,2021-11-06 17:35:55
212,Bathsheba,BB,13.2167,-59.5167,86.61,66,40,20.71,scattered clouds,2021-11-06 17:35:56
213,Honningsvag,NO,70.9821,25.9704,35.35,60,75,20.71,broken clouds,2021-11-06 17:35:56
214,Assiniboia,CA,49.6334,-105.9845,49.91,46,73,11.5,broken clouds,2021-11-06 17:35:56
215,Seymchan,RU,62.8833,152.4333,13.59,92,100,1.77,overcast clouds,2021-11-06 17:35:57
216,Ribas Do Rio Pardo,BR,-20.4431,-53.7592,88.45,49,100,7.94,overcast clouds,2021-11-06 17:35:58
217,Gazanjyk,TM,39.2446,55.5154,42.75,29,94,10.38,overcast clouds,2021-11-06 17:35:58
218,Cabo San Lucas,MX,22.8909,-109.9124,88.52,51,60,1.3,broken clouds,2021-11-06 17:33:58
219,Hearst,CA,49.6835,-83.6665,48.45,74,70,11.23,broken clouds,2021-11-06 17:35:59
220,Tecoanapa,MX,16.5167,-98.75,84.6,65,66,5.19,broken clouds,2021-11-06 17:35:59
221,Cayenne,GF,4.9333,-52.3333,84.24,81,40,4.0,light rain,2021-11-06 17:35:59
222,Yellowknife,CA,62.456,-114.3525,30.42,99,75,6.91,broken clouds,2021-11-06 17:36:00
223,Kholm-Zhirkovskiy,RU,55.5189,33.4731,43.12,86,100,17.0,light rain,2021-11-06 17:36:00
224,Leningradskiy,RU,69.3833,178.4167,-11.92,88,2,5.7,clear sky,2021-11-06 17:36:01
225,Ola,RU,59.5833,151.2833,32.97,91,100,14.23,overcast clouds,2021-11-06 17:36:01
226,Juba,SS,4.8517,31.5825,80.19,56,80,2.62,light rain,2021-11-06 17:36:02
227,Maputo,MZ,-25.9653,32.5892,76.68,88,75,16.11,broken clouds,2021-11-06 17:36:03
228,Yilan,TW,24.757,121.753,77.83,99,77,3.06,broken clouds,2021-11-06 17:34:56
229,Kahului,US,20.8947,-156.47,78.84,76,40,11.5,scattered clouds,2021-11-06 17:36:04
230,Takoradi,GH,4.8845,-1.7554,80.4,81,96,9.17,overcast clouds,2021-11-06 17:36:04
231,Gamba,GA,-2.65,10.0,77.92,87,93,7.2,overcast clouds,2021-11-06 17:36:04
232,Cockburn Town,TC,21.4612,-71.1419,85.96,62,40,11.5,scattered clouds,2021-11-06 17:36:05
233,Mlowo,TZ,-9.0,32.9833,71.82,38,100,5.97,overcast clouds,2021-11-06 17:36:05
234,Mogadishu,SO,2.0371,45.3438,79.54,76,34,14.03,scattered clouds,2021-11-06 17:36:06
235,Letlhakane,BW,-21.4167,25.5833,85.14,30,86,9.66,overcast clouds,2021-11-06 17:36:06
236,Oga,IT,46.4631,10.347,31.69,68,1,0.38,clear sky,2021-11-06 17:36:07
237,Lata,PT,40.1629,-8.3327,57.61,58,0,5.12,clear sky,2021-11-06 17:36:07
238,College,US,64.8569,-147.8028,26.55,86,75,0.0,broken clouds,2021-11-06 17:36:08
239,Fortuna,US,40.5982,-124.1573,52.93,69,100,5.01,overcast clouds,2021-11-06 17:36:08
240,Lalupon,NG,7.4667,4.0667,80.1,71,90,4.14,overcast clouds,2021-11-06 17:36:09
241,Bin Qirdan,TN,33.1378,11.2197,73.53,78,100,11.5,overcast clouds,2021-11-06 17:36:09
242,Brownwood,US,31.7093,-98.9912,66.2,59,1,3.44,clear sky,2021-11-06 17:36:10
243,Alice Springs,AU,-23.7,133.8833,69.35,94,40,5.75,scattered clouds,2021-11-06 17:36:10
244,Pinheiro Machado,BR,-31.5783,-53.3811,60.06,85,99,10.6,overcast clouds,2021-11-06 17:36:10
245,Kirov,RU,58.5966,49.6601,45.37,87,100,13.33,moderate rain,2021-11-06 17:36:11
246,Ossora,RU,59.2353,163.0719,13.23,91,46,4.81,scattered clouds,2021-11-06 17:36:11
247,El Salto,MX,20.3333,-104.5,76.48,40,39,6.24,scattered clouds,2021-11-06 17:36:12
248,Springdale,US,36.1867,-94.1288,58.71,56,1,5.99,clear sky,2021-11-06 17:36:12
249,Muros,ES,42.7762,-9.0603,59.85,73,10,11.5,clear sky,2021-11-06 17:36:13
250,Ust-Kuyga,RU,70.0167,135.6,-3.87,99,100,4.92,overcast clouds,2021-11-06 17:36:13
251,Ponta Do Sol,PT,32.6667,-17.1,71.71,58,23,6.89,few clouds,2021-11-06 17:36:14
252,Xam Nua,LA,20.4197,104.0439,65.28,97,18,2.24,few clouds,2021-11-06 17:36:14
253,Delvada,IN,20.7667,71.0333,78.24,40,89,8.37,overcast clouds,2021-11-06 17:36:14
254,Salym,RU,60.0625,71.4789,35.26,85,100,14.03,overcast clouds,2021-11-06 17:36:15
255,Omboue,GA,-1.5746,9.2618,77.86,85,98,8.37,overcast clouds,2021-11-06 17:36:15
256,Ocos,GT,14.5094,-92.1933,89.26,73,48,5.08,scattered clouds,2021-11-06 17:36:16
257,Vagur,FO,61.4732,-6.8119,46.62,88,100,28.43,overcast clouds,2021-11-06 17:36:16
258,Aksu,CN,41.1231,80.2644,30.87,31,7,5.21,clear sky,2021-11-06 17:31:49
259,Punta Cardon,VE,11.6581,-70.215,86.72,63,12,20.56,few clouds,2021-11-06 17:36:17
260,Contamana,PE,-7.3333,-75.0167,94.71,38,94,6.33,overcast clouds,2021-11-06 17:36:17
261,Hasaki,JP,35.7333,140.8333,54.0,63,100,8.95,light rain,2021-11-06 17:36:18
262,Pangai,TO,-19.8,-174.35,77.56,79,72,14.41,broken clouds,2021-11-06 17:36:18
263,Sao Filipe,CV,14.8961,-24.4956,80.71,70,36,10.54,scattered clouds,2021-11-06 17:36:19
264,Rocha,UY,-34.4833,-54.3333,64.92,57,100,13.71,overcast clouds,2021-11-06 17:36:19
265,Port Lincoln,AU,-34.7333,135.8667,55.62,59,100,7.47,overcast clouds,2021-11-06 17:36:20
266,Kununurra,AU,-15.7667,128.7333,73.38,100,90,5.75,thunderstorm,2021-11-06 17:36:20
267,San Cristobal,VE,7.7669,-72.225,82.58,43,52,8.39,broken clouds,2021-11-06 17:36:20
268,Tabou,CI,4.423,-7.3528,79.74,81,85,6.2,overcast clouds,2021-11-06 17:36:21
269,Morgan City,US,29.6994,-91.2068,65.01,72,20,10.36,few clouds,2021-11-06 17:36:21
270,Bengkulu,ID,-3.8004,102.2655,76.33,92,98,12.46,overcast clouds,2021-11-06 17:36:22
271,Imeni Poliny Osipenko,RU,52.4201,136.4853,20.59,31,17,12.19,few clouds,2021-11-06 17:36:22
272,Acapulco,MX,16.8634,-99.8901,84.2,66,85,5.08,overcast clouds,2021-11-06 17:36:23
273,Filingue,NE,14.3521,3.3168,91.58,12,19,2.86,few clouds,2021-11-06 17:36:23
274,Amapa,BR,1.0,-52.0,81.97,75,72,1.66,broken clouds,2021-11-06 17:36:24
275,Larap,PH,14.299,122.6504,78.71,91,39,5.79,scattered clouds,2021-11-06 17:36:24
276,Vadlapudi,IN,14.3167,79.8,75.52,95,100,8.32,overcast clouds,2021-11-06 17:36:25
277,Maryborough,AU,-25.5333,152.7,71.11,90,72,2.17,broken clouds,2021-11-06 17:36:25
278,Port-De-Bouc,FR,43.4,4.9833,54.95,62,0,16.11,clear sky,2021-11-06 17:36:25
279,Mandalgovi,MN,45.7625,106.2708,10.89,65,0,11.74,clear sky,2021-11-06 17:36:26
280,Sao Jose Da Coroa Grande,BR,-8.8978,-35.1478,83.37,71,19,15.7,few clouds,2021-11-06 17:36:26
281,Shimoda,JP,34.6667,138.95,57.11,88,100,13.06,overcast clouds,2021-11-06 17:36:27
282,Severo-Kurilsk,RU,50.6789,156.125,34.88,75,7,3.65,clear sky,2021-11-06 17:36:27
283,Nokaneng,BW,-19.6667,22.2667,83.95,33,88,3.98,overcast clouds,2021-11-06 17:36:28
284,Iqaluit,CA,63.7506,-68.5145,19.13,78,75,15.01,broken clouds,2021-11-06 17:36:28
285,Lagoa,PT,39.05,-27.9833,68.25,83,100,28.63,overcast clouds,2021-11-06 17:36:29
286,Beringovskiy,RU,63.05,179.3167,13.44,89,100,8.12,overcast clouds,2021-11-06 17:36:29
287,Kuytun,RU,54.3419,101.5036,21.87,85,100,4.65,overcast clouds,2021-11-06 17:36:29
288,Saiha,IN,22.4833,92.9667,60.6,87,24,3.13,few clouds,2021-11-06 17:36:30
289,Tarnogskiy Gorodok,RU,60.4997,43.5761,41.05,84,97,12.84,overcast clouds,2021-11-06 17:36:30
290,Port Stanley,FK,-51.7,-57.85,64.69,58,0,24.16,clear sky,2021-11-06 17:36:31
291,Pangnirtung,CA,66.1451,-65.7125,24.8,42,75,6.91,broken clouds,2021-11-06 17:36:31
292,Kaabong,UG,3.4836,34.1492,74.88,44,83,7.38,broken clouds,2021-11-06 17:36:32
293,Kloulklubed,PW,7.0419,134.2556,79.3,73,84,8.12,broken clouds,2021-11-06 17:36:32
294,Dawei,MM,14.0833,98.2,76.42,91,99,3.51,overcast clouds,2021-11-06 17:36:33
295,Djambala,CG,-2.5447,14.7533,68.86,95,100,0.36,overcast clouds,2021-11-06 17:36:33
296,Tiznit,MA,29.5833,-9.5,62.92,52,0,3.6,clear sky,2021-11-06 17:36:33
297,Bendigo,AU,-36.7667,144.2833,59.86,60,40,5.7,scattered clouds,2021-11-06 17:36:34
298,Marsala,IT,37.7966,12.4352,75.15,64,20,26.46,few clouds,2021-11-06 17:36:34
299,Ancud,CL,-41.8697,-73.8203,62.13,64,3,10.27,clear sky,2021-11-06 17:36:35
300,Narsaq,GL,60.9167,-46.05,32.22,89,100,9.04,overcast clouds,2021-11-06 17:36:35
301,Sambava,MG,-14.2667,50.1667,75.94,84,65,11.21,broken clouds,2021-11-06 17:36:36
302,Sechura,PE,-5.5569,-80.8222,78.53,55,66,14.05,broken clouds,2021-11-06 17:36:36
303,Elizabeth City,US,36.2946,-76.2511,60.98,89,90,19.57,overcast clouds,2021-11-06 17:36:37
304,Kirkuk,IQ,35.4681,44.3922,67.12,26,0,10.58,clear sky,2021-11-06 17:32:32
305,Pimentel,PE,-6.8367,-79.9342,75.49,57,0,17.27,clear sky,2021-11-06 17:36:37
306,Nelson Bay,AU,-32.7167,152.15,65.08,86,69,1.99,broken clouds,2021-11-06 17:35:13
307,Prince Rupert,CA,54.3161,-130.3201,38.89,93,100,8.05,overcast clouds,2021-11-06 17:36:38
308,Verkh-Usugli,RU,52.7,115.1667,10.15,87,21,3.33,few clouds,2021-11-06 17:36:38
309,Obihiro,JP,42.9172,143.2044,39.65,90,21,3.65,few clouds,2021-11-06 17:36:39
310,Honiara,SB,-9.4333,159.95,76.51,87,12,4.68,few clouds,2021-11-06 17:36:39
311,Bairnsdale,AU,-37.8333,147.6167,61.7,95,81,5.79,broken clouds,2021-11-06 17:36:40
312,Mersing,MY,2.4312,103.8405,78.71,94,79,3.44,broken clouds,2021-11-06 17:36:40
313,Skjervoy,NO,70.0311,20.9714,39.97,62,100,14.5,overcast clouds,2021-11-06 17:36:41
314,Ciudad Bolivar,VE,8.1222,-63.5497,90.55,47,100,11.27,overcast clouds,2021-11-06 17:36:41
315,Tarakan,ID,3.3,117.6333,78.3,94,20,2.3,few clouds,2021-11-06 17:36:41
316,Mercedes,AR,-34.6515,-59.4307,72.52,23,53,10.38,broken clouds,2021-11-06 17:36:42
317,Bourail,NC,-21.5667,165.4833,68.41,72,88,3.09,overcast clouds,2021-11-06 17:36:42
318,El Alto,PE,-4.2714,-81.2147,73.06,67,26,15.35,scattered clouds,2021-11-06 17:36:43
319,Svay Rieng,KH,11.0879,105.7993,77.56,90,68,5.39,broken clouds,2021-11-06 17:36:43
320,Goundam,ML,16.4145,-3.6708,94.98,13,95,7.16,overcast clouds,2021-11-06 17:36:44
321,Morondava,MG,-20.2833,44.2833,77.41,73,1,10.69,clear sky,2021-11-06 17:36:44
322,Dothan,US,31.2232,-85.3905,60.96,48,88,1.99,overcast clouds,2021-11-06 17:34:24
323,Sumbe,AO,-11.2061,13.8437,76.26,87,89,13.11,overcast clouds,2021-11-06 17:36:45
324,Suluq,LY,31.6682,20.2521,76.03,32,10,6.17,clear sky,2021-11-06 17:36:45
325,Ulaangom,MN,49.9811,92.0667,14.05,69,100,2.44,overcast clouds,2021-11-06 17:36:46
326,Krasnoborsk,RU,61.5598,45.934,40.23,86,88,8.01,light rain,2021-11-06 17:36:46
327,Itaituba,BR,-4.2761,-55.9836,84.36,79,40,3.44,scattered clouds,2021-11-06 17:36:46
328,Humaita,BR,-7.5061,-63.0208,78.24,92,100,3.0,overcast clouds,2021-11-06 17:36:47
329,Mount Gambier,AU,-37.8333,140.7667,51.71,82,90,3.44,overcast clouds,2021-11-06 17:34:30
330,Farkhor,TJ,37.4922,69.4036,47.28,28,1,1.25,clear sky,2021-11-06 17:36:48
331,Magadan,RU,59.5667,150.8,34.12,92,100,16.22,overcast clouds,2021-11-06 17:36:48
332,Altay,CN,47.8667,88.1167,11.95,56,80,6.53,broken clouds,2021-11-06 17:36:49
333,Nouakchott,MR,18.0858,-15.9785,87.73,58,0,16.02,clear sky,2021-11-06 17:36:49
334,Motygino,RU,58.1831,94.7592,23.43,93,100,9.93,overcast clouds,2021-11-06 17:36:49
335,Bintulu,MY,3.1667,113.0333,79.21,94,40,3.0,scattered clouds,2021-11-06 17:36:50
336,Bonnyville,CA,54.2668,-110.735,38.52,70,91,12.15,overcast clouds,2021-11-06 17:36:50
337,Perafita,PT,41.1825,-8.2545,54.21,57,1,2.17,clear sky,2021-11-06 17:36:51
338,Olsztyn,PL,53.7799,20.4942,48.16,83,100,11.9,overcast clouds,2021-11-06 17:36:51
339,Cap-Aux-Meules,CA,47.3821,-61.8597,48.25,66,20,20.71,few clouds,2021-11-06 17:36:52
340,Simao,CN,22.7886,100.9748,58.78,93,6,0.78,clear sky,2021-11-06 17:36:52
341,Khipro,PK,25.8285,69.3772,80.51,19,52,4.47,broken clouds,2021-11-06 17:36:52
342,Ilulissat,GL,69.2167,-51.1,19.42,49,75,13.8,broken clouds,2021-11-06 17:36:53
343,Chulym,RU,55.0997,80.9572,28.06,95,100,13.53,overcast clouds,2021-11-06 17:36:53
344,Saint-Augustin,CA,51.226,-58.6502,41.83,47,24,12.48,few clouds,2021-11-06 17:36:54
345,San Quintin,MX,30.4833,-115.95,69.04,69,0,7.78,clear sky,2021-11-06 17:36:54
346,Uruzgan,AF,32.8333,66.0,48.0,52,9,1.59,clear sky,2021-11-06 17:36:54
347,Jha Jha,IN,24.7667,86.3667,67.44,63,44,2.66,scattered clouds,2021-11-06 17:36:55
348,Nadadores,MX,27.05,-101.6,68.07,54,0,3.91,clear sky,2021-11-06 17:36:55
349,Cidreira,BR,-30.1811,-50.2056,69.33,86,83,15.93,broken clouds,2021-11-06 17:36:56
350,San Carlos De Bariloche,AR,-41.1456,-71.3082,69.55,14,0,13.8,clear sky,2021-11-06 17:36:56
351,Olinda,BR,-8.0089,-34.8553,87.53,58,20,11.5,few clouds,2021-11-06 17:36:56
352,Lavrentiya,RU,65.5833,-171.0,3.24,79,24,7.18,few clouds,2021-11-06 17:36:57
353,Husavik,IS,66.0449,-17.3389,33.71,94,100,12.06,light rain,2021-11-06 17:36:57
354,Agadez,NE,19.75,10.25,80.82,12,3,6.04,clear sky,2021-11-06 17:36:58
355,Methoni,GR,36.8197,21.7049,71.22,60,91,6.26,overcast clouds,2021-11-06 17:36:58
356,Vista Hermosa,MX,19.5167,-99.2167,64.54,33,92,6.26,overcast clouds,2021-11-06 17:36:59
357,Faanui,PF,-16.4833,-151.75,79.97,69,33,4.63,scattered clouds,2021-11-06 17:36:59
358,Margate,GB,51.3813,1.3862,55.04,78,82,4.0,broken clouds,2021-11-06 17:36:59
359,Talcahuano,CL,-36.7167,-73.1167,56.88,77,90,5.75,overcast clouds,2021-11-06 17:37:00
360,Diffa,NE,13.3154,12.6113,86.95,14,6,7.72,clear sky,2021-11-06 17:37:00
361,Catio,GW,11.2833,-15.25,84.09,70,74,8.41,broken clouds,2021-11-06 17:37:01
362,Gat,IL,31.61,34.7642,75.88,55,46,3.83,scattered clouds,2021-11-06 17:37:01
363,Kirensk,RU,57.7853,108.1119,23.5,93,100,11.95,light snow,2021-11-06 17:37:02
364,Half Moon Bay,US,37.4636,-122.4286,61.92,84,1,1.99,clear sky,2021-11-06 17:37:02
365,Abha,SA,18.2164,42.5053,62.42,67,0,4.61,clear sky,2021-11-06 17:36:44
366,Madison,US,34.7334,-86.5667,60.46,59,1,1.01,clear sky,2021-11-06 17:32:12
367,Fairbanks,US,64.8378,-147.7164,26.56,87,90,0.0,overcast clouds,2021-11-06 17:37:03
368,Terrace Bay,CA,48.7834,-87.1,46.02,89,100,16.49,overcast clouds,2021-11-06 17:37:03
369,Riwaka,NZ,-41.0833,173.0,55.0,75,100,2.64,overcast clouds,2021-11-06 17:37:04
370,Road Town,VG,18.4167,-64.6167,86.09,66,20,11.5,few clouds,2021-11-06 17:37:05
371,Vardo,NO,70.3705,31.1107,34.66,62,100,24.56,overcast clouds,2021-11-06 17:37:05
372,San Pedro,PH,14.35,121.0167,81.63,79,20,4.61,few clouds,2021-11-06 17:37:05
373,Kurchum,KZ,48.5722,83.6542,18.75,55,87,3.85,overcast clouds,2021-11-06 17:37:06
374,Araouane,ML,18.9048,-3.5265,87.57,16,73,8.9,broken clouds,2021-11-06 17:37:06
375,Matara,LK,5.9485,80.5353,76.48,91,99,9.89,overcast clouds,2021-11-06 17:37:07
376,Souillac,MU,-20.5167,57.5167,76.35,83,40,11.5,scattered clouds,2021-11-06 17:37:07
377,Mirnyy,RU,62.5353,113.9611,9.1,95,98,6.4,overcast clouds,2021-11-06 17:37:07
378,Tautira,PF,-17.7333,-149.15,80.62,78,78,7.56,light rain,2021-11-06 17:37:08
379,Ust-Kan,RU,50.9276,84.761,15.93,87,100,3.44,overcast clouds,2021-11-06 17:37:08
380,Liuzhou,CN,24.3126,109.3892,71.92,95,69,3.11,broken clouds,2021-11-06 17:37:09
381,Klyuchi,RU,52.2667,79.1667,25.47,92,98,9.28,overcast clouds,2021-11-06 17:37:09
382,Yerofey Pavlovich,RU,53.9667,121.9667,12.7,49,36,2.28,scattered clouds,2021-11-06 17:37:10
383,Yulara,AU,-25.2406,130.9889,67.84,88,90,9.22,overcast clouds,2021-11-06 17:37:10
384,Chicama,PE,-7.8447,-79.1469,66.74,61,99,11.21,overcast clouds,2021-11-06 17:37:10
385,Chlorakas,CY,34.8042,32.4083,70.68,49,0,6.91,clear sky,2021-11-06 17:37:11
386,Bilma,NE,18.6853,12.9164,84.15,13,13,5.46,few clouds,2021-11-06 17:37:11
387,Darlowo,PL,54.421,16.4107,47.95,83,100,21.97,overcast clouds,2021-11-06 17:34:26
388,Ada,US,43.4166,-116.1262,52.09,65,75,4.0,broken clouds,2021-11-06 17:37:12
389,Kuah,MY,6.3265,99.8432,80.58,94,20,2.3,few clouds,2021-11-06 17:37:12
390,Nishihara,JP,26.1842,127.7558,75.25,86,75,13.8,broken clouds,2021-11-06 17:37:13
391,Parati,BR,-23.2178,-44.7131,90.5,77,68,4.59,broken clouds,2021-11-06 17:34:51
392,Flinders,AU,-34.5833,150.8552,65.48,89,52,3.0,broken clouds,2021-11-06 17:37:13
393,Alofi,NU,-19.0595,-169.9187,73.29,94,58,6.91,light rain,2021-11-06 17:37:14
394,Metro,ID,-5.1131,105.3067,76.05,88,100,3.22,overcast clouds,2021-11-06 17:37:14
395,Clyde River,CA,70.4692,-68.5914,19.63,79,75,8.05,broken clouds,2021-11-06 17:37:15
396,Kovur,IN,14.4833,79.9833,75.74,94,100,11.14,light rain,2021-11-06 17:37:15
397,Antofagasta,CL,-23.65,-70.4,63.68,66,11,10.67,few clouds,2021-11-06 17:37:16
398,Fredericksburg,US,38.3032,-77.4605,57.74,47,1,4.0,clear sky,2021-11-06 17:33:16
399,Campbell River,CA,50.0163,-125.2446,45.32,98,75,4.61,broken clouds,2021-11-06 17:37:16
400,Metlaltoyuca,MX,20.7333,-97.85,71.8,71,77,3.69,broken clouds,2021-11-06 17:37:17
401,Samarai,PG,-10.6167,150.6667,82.13,78,59,14.07,broken clouds,2021-11-06 17:37:17
402,Manavalakurichi,IN,8.1333,77.3,82.49,86,78,10.13,light rain,2021-11-06 17:37:18
403,Capaci,IT,38.1711,13.2393,74.12,84,75,1.99,broken clouds,2021-11-06 17:37:18
404,Aitape,PG,-3.1374,142.3475,77.74,87,70,5.03,broken clouds,2021-11-06 17:37:19
405,Herat,AF,34.5,62.0,36.14,25,94,9.93,overcast clouds,2021-11-06 17:37:19
406,Bowen,AU,-20.0167,148.2333,68.22,71,84,11.86,broken clouds,2021-11-06 17:37:19
407,Tuatapere,NZ,-46.1333,167.6833,50.83,91,72,1.92,broken clouds,2021-11-06 17:37:20
408,Kutum,SD,14.2,24.6667,77.86,22,3,10.11,clear sky,2021-11-06 17:37:20
409,Torbat-E Jam,IR,35.244,60.6225,37.62,17,98,2.91,overcast clouds,2021-11-06 17:37:21
410,Manbij,SY,36.5281,37.9549,59.77,33,0,1.48,clear sky,2021-11-06 17:37:21
411,Egvekinot,RU,66.3167,-179.1667,-12.62,93,55,2.24,broken clouds,2021-11-06 17:37:22
412,Acarau,BR,-2.8856,-40.12,87.3,60,49,17.94,scattered clouds,2021-11-06 17:37:22
413,Victoria,HK,22.2855,114.1577,79.32,86,15,3.0,few clouds,2021-11-06 17:34:35
414,Anderson,US,34.5334,-82.6499,55.26,48,1,5.01,clear sky,2021-11-06 17:37:23
415,Ouahigouya,BF,13.5828,-2.4216,93.92,16,30,8.43,scattered clouds,2021-11-06 17:37:23
416,Selaphum,TH,16.0299,103.9383,77.59,82,41,2.66,scattered clouds,2021-11-06 17:37:23
417,Airai,TL,-8.9266,125.4092,62.65,92,40,0.81,scattered clouds,2021-11-06 17:37:24
418,Neryungri,RU,56.6709,124.6491,1.0,91,58,4.16,broken clouds,2021-11-06 17:37:24
419,Lima,PE,-12.0432,-77.0282,67.14,72,90,4.61,overcast clouds,2021-11-06 17:36:34
420,Correia Pinto,BR,-27.5847,-50.3611,76.66,88,90,1.74,overcast clouds,2021-11-06 17:37:25
421,Mecca,SA,21.4267,39.8261,80.6,58,0,4.47,clear sky,2021-11-06 17:37:25
422,Viedma,AR,-40.8135,-62.9967,77.34,12,81,13.15,broken clouds,2021-11-06 17:37:26
423,Suntar,RU,62.1444,117.6319,15.06,92,100,6.13,overcast clouds,2021-11-06 17:37:26
424,Jedrzejow,PL,50.6394,20.3045,45.19,68,7,3.0,clear sky,2021-11-06 17:36:05
425,Ono,JP,34.85,134.9333,60.26,75,100,7.87,overcast clouds,2021-11-06 17:37:28
426,Erdenet,MN,49.0333,104.0833,10.06,64,67,4.18,broken clouds,2021-11-06 17:37:28
427,Oistins,BB,13.0667,-59.5333,86.09,66,40,20.71,scattered clouds,2021-11-06 17:37:28
428,Fereydun Kenar,IR,36.6864,52.5225,52.11,61,100,2.13,overcast clouds,2021-11-06 17:37:29
429,Perth,AU,-31.9333,115.8333,55.18,75,0,10.36,clear sky,2021-11-06 17:34:44
430,Jamundi,CO,3.2607,-76.535,85.28,60,90,1.12,overcast clouds,2021-11-06 17:37:29
431,Hwange,ZW,-18.3693,26.5019,86.4,23,46,2.01,scattered clouds,2021-11-06 17:37:30
432,Ludwigslust,DE,53.3167,11.5,49.82,81,100,13.62,overcast clouds,2021-11-06 17:37:30
433,Fortuna Foothills,US,32.6578,-114.4119,85.21,24,1,1.01,clear sky,2021-11-06 17:37:31
434,Camacha,PT,33.0833,-16.3333,66.96,60,75,17.27,broken clouds,2021-11-06 17:37:31
435,Vila Franca Do Campo,PT,37.7167,-25.4333,70.21,78,43,14.63,scattered clouds,2021-11-06 17:37:32
436,Mayo,US,38.8876,-76.5119,58.17,57,1,1.99,clear sky,2021-11-06 17:37:32
437,Newport,GB,51.5877,-2.9984,56.44,91,73,23.47,broken clouds,2021-11-06 17:37:32
438,Isangel,VU,-19.55,169.2667,71.92,85,100,8.19,overcast clouds,2021-11-06 17:37:33
439,Roma,US,43.2128,-75.4557,53.85,48,1,0.0,clear sky,2021-11-06 17:37:33
440,Pisco,PE,-13.7,-76.2167,71.02,77,0,11.5,clear sky,2021-11-06 17:37:34
441,Dickson,US,36.077,-87.3878,58.87,65,75,0.0,broken clouds,2021-11-06 17:37:34
442,Sao Miguel Do Araguaia,BR,-13.275,-50.1628,83.19,69,99,4.99,overcast clouds,2021-11-06 17:37:35
443,Sorland,NO,67.667,12.6934,40.93,72,100,26.84,overcast clouds,2021-11-06 17:37:35
444,Ilhabela,BR,-23.7781,-45.3581,73.36,75,77,4.99,broken clouds,2021-11-06 17:37:36
445,Frankfort,ZA,-27.2667,28.4833,66.6,55,81,8.79,broken clouds,2021-11-06 17:37:36
446,Omsukchan,RU,62.5333,155.8,13.64,94,97,8.08,overcast clouds,2021-11-06 17:37:36
447,Havre-Saint-Pierre,CA,50.2334,-63.5986,45.19,70,20,19.57,few clouds,2021-11-06 17:37:37
448,Bacabal,BR,-4.2917,-44.7917,90.63,48,82,5.12,broken clouds,2021-11-06 17:37:37
449,Hay River,CA,60.8156,-115.7999,30.18,93,90,2.3,light snow,2021-11-06 17:35:12
450,Riyadh,SA,24.6877,46.7219,75.34,27,0,6.96,clear sky,2021-11-06 17:33:55
451,Whitehorse,CA,60.7161,-135.0538,30.97,100,90,10.0,overcast clouds,2021-11-06 17:37:38
452,Trinidad,BO,-14.8333,-64.9,69.78,78,75,14.97,broken clouds,2021-11-06 17:37:39
453,Lompoc,US,34.6391,-120.4579,59.31,100,90,0.0,mist,2021-11-06 17:37:39
454,Nuuk,GL,64.1835,-51.7216,29.01,80,75,10.36,broken clouds,2021-11-06 17:37:39
455,Guerrero Negro,MX,27.9769,-114.0611,74.35,55,4,6.38,clear sky,2021-11-06 17:33:32
456,Tripoli,LY,32.8752,13.1875,83.34,32,100,19.46,overcast clouds,2021-11-06 17:37:40
457,Kaohsiung,TW,22.6163,120.3133,79.03,82,75,1.01,broken clouds,2021-11-06 17:37:40
458,Kieta,PG,-6.2167,155.6333,79.5,81,84,4.34,broken clouds,2021-11-06 17:37:41
459,Sinnamary,GF,5.3833,-52.95,81.41,79,98,7.63,overcast clouds,2021-11-06 17:37:41
460,Turkistan,KZ,43.0,68.0,36.75,20,0,19.69,clear sky,2021-11-06 17:37:42
461,Killarney,IE,52.05,-9.5167,53.65,82,75,13.8,broken clouds,2021-11-06 17:34:44
462,Perambalur,IN,11.2333,78.8833,81.99,91,94,4.63,overcast clouds,2021-11-06 17:37:42
463,Balkhash,KZ,46.844,74.9804,30.25,26,3,5.19,clear sky,2021-11-06 17:37:43
464,Vila Velha,BR,-20.3297,-40.2925,76.95,75,75,5.99,broken clouds,2021-11-06 17:37:43
465,Hambantota,LK,6.1241,81.1185,79.07,80,100,10.74,moderate rain,2021-11-06 17:37:44
466,Kilimatinde,TZ,-5.85,34.95,80.6,25,90,7.25,overcast clouds,2021-11-06 17:37:44
467,Sur,OM,22.5667,59.5289,76.8,54,0,5.03,clear sky,2021-11-06 17:37:44
468,Saurimo,AO,-9.6608,20.3916,73.53,55,100,3.09,overcast clouds,2021-11-06 17:37:39
469,Maamba,ZM,-17.3667,27.15,84.18,24,69,4.56,broken clouds,2021-11-06 17:37:45
470,Baoqing,CN,46.3317,132.2111,23.04,35,100,4.79,overcast clouds,2021-11-06 17:37:45
471,Alenquer,BR,-1.9417,-54.7383,88.14,49,94,1.43,overcast clouds,2021-11-06 17:37:46
472,Shirpur,IN,21.35,74.8833,74.64,40,73,6.44,broken clouds,2021-11-06 17:37:46
473,Sandy Bay,AU,-42.913,147.3532,53.49,70,90,1.99,overcast clouds,2021-11-06 17:37:47
474,Fort Frances,CA,48.5999,-93.4003,53.17,68,1,5.99,clear sky,2021-11-06 17:37:47
475,Blackwater,AU,-23.5833,148.8833,68.97,82,69,9.4,broken clouds,2021-11-06 17:37:48
476,Katsuura,JP,35.1333,140.3,59.14,76,100,10.87,moderate rain,2021-11-06 17:37:08
477,Urumqi,CN,43.801,87.6005,16.75,73,0,6.71,clear sky,2021-11-06 17:37:48
478,Bjerkvik,NO,68.5597,17.5189,36.19,83,100,5.1,overcast clouds,2021-11-06 17:37:49
479,Kaeo,NZ,-35.1,173.7833,55.33,96,20,3.36,few clouds,2021-11-06 17:37:49
480,Porto Novo,BJ,6.4965,2.6036,82.22,78,99,6.69,overcast clouds,2021-11-06 17:37:50
481,Flin Flon,CA,54.7682,-101.865,37.24,93,90,4.61,overcast clouds,2021-11-06 17:34:44
482,Topolobampo,MX,25.6,-109.05,84.06,37,77,3.74,broken clouds,2021-11-06 17:37:50
483,Pudozh,RU,61.8099,36.5345,39.4,84,99,8.19,light rain,2021-11-06 17:37:51
484,Petropavlovsk-Kamchatskiy,RU,53.0452,158.6483,28.99,59,75,6.71,broken clouds,2021-11-06 17:37:51
485,Krasnoselkup,RU,65.7,82.4667,29.55,97,100,24.63,snow,2021-11-06 17:37:52
486,Akyab,MM,20.15,92.9,74.61,75,1,8.88,clear sky,2021-11-06 17:37:52
487,Grindavik,IS,63.8424,-22.4338,37.35,93,90,13.8,overcast clouds,2021-11-06 17:37:53
488,Touros,BR,-5.1989,-35.4608,88.7,65,96,13.04,overcast clouds,2021-11-06 17:37:53
489,Minyar,RU,55.0709,57.5485,35.65,29,100,17.18,overcast clouds,2021-11-06 17:37:53
490,Lazarev,RU,52.225,141.5131,23.49,62,70,28.07,broken clouds,2021-11-06 17:37:54
491,Puerto Escondido,MX,15.85,-97.0667,85.5,58,73,6.38,broken clouds,2021-11-06 17:37:54
492,La Orilla,MX,17.9833,-102.2333,84.22,67,99,2.89,overcast clouds,2021-11-06 17:37:55
493,Rabo De Peixe,PT,37.8,-25.5833,69.31,78,20,18.41,few clouds,2021-11-06 17:37:55
494,Uribia,CO,11.7139,-72.266,90.66,48,29,17.94,scattered clouds,2021-11-06 17:37:56
495,Verkhoyansk,RU,67.5447,133.385,-3.23,90,99,5.37,overcast clouds,2021-11-06 17:37:56
496,Turochak,RU,52.2576,87.1224,17.94,96,100,0.2,overcast clouds,2021-11-06 17:37:56
497,Morant Bay,JM,17.8815,-76.4093,87.62,77,100,6.42,overcast clouds,2021-11-06 17:37:57
498,Moron,AR,-34.6534,-58.6198,73.94,52,45,5.01,scattered clouds,2021-11-06 17:36:29
499,Brenham,US,30.1669,-96.3977,65.62,54,1,0.0,clear sky,2021-11-06 17:37:57
500,Aklavik,CA,68.2191,-135.0107,17.6,93,90,9.22,overcast clouds,2021-11-06 17:37:58
501,Pombas,CV,17.1503,-25.0201,78.58,76,16,13.62,few clouds,2021-11-06 17:37:59
502,Ust-Kulom,RU,61.6864,53.6902,40.41,93,100,7.09,overcast clouds,2021-11-06 17:37:59
503,Hervey Bay,AU,-25.2986,152.8535,71.04,81,64,9.42,broken clouds,2021-11-06 17:38:00
504,Avera,US,33.194,-82.5271,52.75,43,100,14.61,overcast clouds,2021-11-06 17:38:00
505,Storforshei,NO,66.4043,14.5233,34.66,98,99,3.96,light rain,2021-11-06 17:38:00
506,Oranjemund,NA,-28.55,16.4333,60.71,77,63,18.3,broken clouds,2021-11-06 17:38:01
507,Batticaloa,LK,7.7102,81.6924,78.48,81,78,9.89,broken clouds,2021-11-06 17:38:02
508,Kargasok,RU,59.0556,80.8572,32.05,89,100,17.9,overcast clouds,2021-11-06 17:38:03
509,Pouebo,NC,-20.4,164.5667,69.08,81,48,5.97,scattered clouds,2021-11-06 17:38:03
510,Cajititlan,MX,20.4333,-103.3167,72.95,39,18,4.7,few clouds,2021-11-06 17:38:04
511,Kapit,MY,2.0167,112.9333,74.07,99,100,0.81,overcast clouds,2021-11-06 17:38:04
512,Teeli,RU,51.0333,90.2333,15.57,49,100,1.1,overcast clouds,2021-11-06 17:38:04
513,Strezhevoy,RU,60.7333,77.5889,33.78,97,100,17.43,light rain,2021-11-06 17:38:05
514,Acacias,CO,3.987,-73.758,83.37,62,71,6.51,broken clouds,2021-11-06 17:38:05
515,Gambela,ET,8.25,34.5833,72.81,80,19,5.08,light rain,2021-11-06 17:38:06
516,Guanare,VE,9.0418,-69.7421,89.62,55,74,6.91,broken clouds,2021-11-06 17:38:06
517,Nanakuli,US,21.3906,-158.1547,77.7,73,1,5.75,clear sky,2021-11-06 17:38:07
518,Dunedin,NZ,-45.8742,170.5036,52.81,83,83,5.99,broken clouds,2021-11-06 17:38:07
519,Horta,PT,38.5333,-28.6333,71.24,83,40,23.02,scattered clouds,2021-11-06 17:38:07
520,Qasigiannguit,GL,68.8193,-51.1922,19.65,77,100,4.5,overcast clouds,2021-11-06 17:38:08
521,Kommunisticheskiy,RU,61.6789,64.4819,36.03,91,100,13.38,overcast clouds,2021-11-06 17:38:08
522,Nuqui,CO,5.7125,-77.2708,81.66,75,68,8.95,light rain,2021-11-06 17:38:09
523,Fryazino,RU,55.9606,38.0456,45.09,74,92,12.53,overcast clouds,2021-11-06 17:38:09
524,Warri,NG,5.5167,5.75,77.94,90,100,4.43,light rain,2021-11-06 17:38:10
525,Tarija,BO,-21.5355,-64.7296,69.71,60,75,5.75,broken clouds,2021-11-06 17:34:47
526,Sheridan,US,44.8333,-106.9173,66.31,49,1,0.0,clear sky,2021-11-06 17:34:08
527,Bo Rai,TH,12.5728,102.5371,81.86,95,62,1.14,broken clouds,2021-11-06 17:38:11
528,Oktyabrskiy,RU,54.4815,53.471,38.01,37,100,22.82,overcast clouds,2021-11-06 17:38:11
529,Praya,CV,14.9215,-23.5087,84.74,58,40,19.57,scattered clouds,2021-11-06 17:38:12
530,Surab,PK,28.4914,66.2585,54.23,34,0,6.22,clear sky,2021-11-06 17:38:12
531,Valky,UA,49.8387,35.6207,42.66,73,40,7.09,scattered clouds,2021-11-06 17:38:13
532,Erenhot,CN,43.6475,111.9767,11.71,79,100,7.87,overcast clouds,2021-11-06 17:38:13
533,Goderich,CA,43.7501,-81.7165,49.91,61,98,13.8,overcast clouds,2021-11-06 17:34:44
534,Kosa,RU,59.9445,54.9977,36.57,95,100,12.59,overcast clouds,2021-11-06 17:38:14
535,Vaitape,PF,-16.5167,-151.75,79.93,69,34,4.72,scattered clouds,2021-11-06 17:38:14
536,Port Hedland,AU,-20.3167,118.5667,78.85,83,22,12.66,few clouds,2021-11-06 17:38:15
537,Saint George,US,37.1041,-113.5841,75.67,31,48,1.99,scattered clouds,2021-11-06 17:33:16
538,Stephenville,US,32.2207,-98.2023,64.76,59,1,5.75,clear sky,2021-11-06 17:38:15
539,Dali,CN,25.7,100.1833,47.34,67,26,3.38,scattered clouds,2021-11-06 17:38:16
540,Taltal,CL,-25.4,-70.4833,66.36,63,9,8.77,clear sky,2021-11-06 17:38:16
541,Khandyga,RU,62.6667,135.6,-4.47,99,99,3.24,overcast clouds,2021-11-06 17:38:17
542,Cervo,ES,43.6702,-7.4101,54.97,72,21,8.48,few clouds,2021-11-06 17:38:17
543,Umm Kaddadah,SD,13.6017,26.6876,87.26,19,7,10.6,clear sky,2021-11-06 17:38:18
544,Shu,KZ,43.5983,73.7614,23.36,66,0,4.63,clear sky,2021-11-06 17:38:18
545,Quatre Cocos,MU,-20.2078,57.7625,76.08,79,78,13.24,broken clouds,2021-11-06 17:38:19
546,Faya,SA,18.3851,42.4509,62.71,54,7,3.91,clear sky,2021-11-06 17:38:19
547,Broome,US,42.2506,-75.833,51.46,51,1,3.0,clear sky,2021-11-06 17:38:20
548,Grants Pass,US,42.439,-123.3284,50.49,84,40,3.44,fog,2021-11-06 17:37:43
549,Caravelas,BR,-17.7125,-39.2481,79.54,64,85,8.63,overcast clouds,2021-11-06 17:38:20
550,Korla,CN,41.7597,86.1469,26.78,42,0,4.45,clear sky,2021-11-06 17:38:21
551,Ygatimi,PY,-24.0833,-55.5,82.65,66,94,6.04,overcast clouds,2021-11-06 17:38:21
552,Cumpas,MX,29.9833,-109.7833,81.64,18,0,2.66,clear sky,2021-11-06 17:38:22
553,Tres Arroyos,AR,-38.3739,-60.2798,74.41,17,53,8.57,broken clouds,2021-11-06 17:38:22
554,Sabya,SA,17.1495,42.6254,85.62,59,4,4.7,clear sky,2021-11-06 17:38:23
555,Adrar,MR,20.5022,-10.0711,81.61,22,11,8.57,few clouds,2021-11-06 17:38:23
556,Huicungo,PE,-7.2833,-76.8,79.05,83,75,0.0,light rain,2021-11-06 17:38:24
557,Northam,GB,51.0333,-4.2167,55.09,96,77,24.79,broken clouds,2021-11-06 17:38:24
558,Tandur,IN,17.2333,77.5833,68.68,68,7,7.63,clear sky,2021-11-06 17:38:25
559,Kiruna,SE,67.8557,20.2251,27.52,93,90,3.44,overcast clouds,2021-11-06 17:38:25
560,Maningrida,AU,-12.0667,134.2667,82.63,75,61,6.15,broken clouds,2021-11-06 17:38:26
561,Santa Maria,BR,-29.6842,-53.8069,72.7,68,90,6.91,overcast clouds,2021-11-06 17:38:26
562,Vazhiny,RU,60.9644,34.0222,37.31,93,95,6.6,overcast clouds,2021-11-06 17:38:26
563,Asyut,EG,27.181,31.1837,77.97,37,0,6.4,clear sky,2021-11-06 17:38:27
564,Suba,PH,10.8438,121.0102,83.55,79,69,15.19,broken clouds,2021-11-06 17:38:27
565,Naron,ES,43.5167,-8.1528,58.05,76,17,9.53,few clouds,2021-11-06 17:38:28
566,Chara,RU,56.9064,118.2631,5.45,82,100,0.72,overcast clouds,2021-11-06 17:38:28
567,Severnyy,RU,50.677,36.5532,44.64,87,24,6.71,few clouds,2021-11-06 17:38:29
568,Kosino,RU,58.4127,51.2782,43.65,94,100,15.32,moderate rain,2021-11-06 17:38:29
569,Skibbereen,IE,51.55,-9.2667,55.2,83,98,14.12,overcast clouds,2021-11-06 17:38:29
570,Vostok,RU,46.4856,135.8833,16.03,87,100,2.82,overcast clouds,2021-11-06 17:38:30
571,Asvanyraro,HU,47.8273,17.4942,47.05,65,9,2.26,clear sky,2021-11-06 17:38:30
572,Shenjiamen,CN,29.9576,122.298,68.29,83,24,16.04,few clouds,2021-11-06 17:38:31
573,Harper,LR,4.375,-7.7169,79.77,81,99,6.62,overcast clouds,2021-11-06 17:38:31
574,Cuprija,RS,43.9275,21.37,49.19,93,98,2.37,overcast clouds,2021-11-06 17:38:32
575,Montepuez,MZ,-13.1256,38.9997,79.61,45,21,9.13,few clouds,2021-11-06 17:38:32
576,Mazatlan,MX,23.2167,-106.4167,85.91,61,2,1.01,clear sky,2021-11-06 17:36:40
577,Hami,CN,42.8,93.45,24.58,40,0,3.89,clear sky,2021-11-06 17:38:33
578,Staunton,US,38.1496,-79.0717,52.84,44,1,1.99,clear sky,2021-11-06 17:38:33
579,Okha,RU,53.5739,142.9478,26.26,82,100,24.74,snow,2021-11-06 17:38:34
580,Kinston,US,35.2627,-77.5816,62.58,67,90,16.11,overcast clouds,2021-11-06 17:38:34
581,Kamen-Na-Obi,RU,53.7884,81.3423,26.28,94,99,12.24,overcast clouds,2021-11-06 17:38:34
582,Mwinilunga,ZM,-11.7358,24.4293,74.1,34,79,3.78,broken clouds,2021-11-06 17:38:35
583,Butterworth,MY,5.3991,100.3638,80.64,92,40,5.01,scattered clouds,2021-11-06 17:38:35
584,Mulchen,CL,-37.7167,-72.2333,73.26,22,0,4.18,clear sky,2021-11-06 17:38:36
585,Chongwe,ZM,-15.3292,28.682,78.94,23,14,5.08,few clouds,2021-11-06 17:38:36
586,Qostanay,KZ,53.1667,63.5833,32.29,27,0,17.9,clear sky,2021-11-06 17:38:37
587,Atambua,ID,-9.1061,124.8925,76.73,83,50,1.79,scattered clouds,2021-11-06 17:38:37
588,Nome,US,64.5011,-165.4064,19.47,73,90,8.05,overcast clouds,2021-11-06 17:37:24
589,Goma,CD,-1.6792,29.2228,63.9,88,60,4.47,light rain,2021-11-06 17:38:38
590,Pelotas,BR,-31.7719,-52.3425,69.82,70,90,7.0,overcast clouds,2021-11-06 17:38:38
591,Marathon,US,44.9,-89.7668,55.72,65,1,1.99,clear sky,2021-11-06 17:38:38
592,Vanavara,RU,60.34,102.2797,18.25,96,96,6.82,overcast clouds,2021-11-06 17:38:39
593,Dayong,CN,25.0209,118.2898,74.89,95,90,3.22,light rain,2021-11-06 17:38:39
594,Koungheul,SN,13.9833,-14.8,96.24,26,68,4.7,broken clouds,2021-11-06 17:38:40
595,Peleduy,RU,59.6289,112.7406,21.42,94,100,9.53,light snow,2021-11-06 17:38:40
596,Ugoofaaru,MV,5.6667,73.0,81.66,79,61,15.9,broken clouds,2021-11-06 17:38:41
597,Ibotirama,BR,-12.1853,-43.2206,87.15,50,97,4.38,overcast clouds,2021-11-06 17:38:41
598,Deputatskiy,RU,69.3,139.9,-1.17,86,100,17.58,overcast clouds,2021-11-06 17:38:41
599,Ketchikan,US,55.3422,-131.6461,39.67,100,90,3.44,overcast clouds,2021-11-06 17:38:42
600,Labuhan,ID,-6.8844,112.2051,82.72,73,93,3.49,overcast clouds,2021-11-06 17:38:42
601,Bud,US,39.447,-86.1758,55.81,47,8,5.68,clear sky,2021-11-06 17:38:43
602,Trairi,BR,-3.2778,-39.2689,86.72,62,40,11.92,scattered clouds,2021-11-06 17:35:42
603,Mikhaylovka,RU,50.06,43.2379,47.84,57,99,12.17,overcast clouds,2021-11-06 17:38:43
604,Ouango,CF,4.3133,22.5552,74.21,86,82,1.66,broken clouds,2021-11-06 17:38:44
605,Kansanshi,ZM,-12.0951,26.4273,70.38,28,41,2.28,scattered clouds,2021-11-06 17:38:44
606,Pacific Grove,US,36.6177,-121.9166,62.71,75,1,1.01,clear sky,2021-11-06 17:38:45
607,Wattegama,LK,6.7989,81.4808,74.25,98,100,1.72,moderate rain,2021-11-06 17:38:45
608,Huron,US,41.1501,-82.5499,53.53,50,8,8.05,clear sky,2021-11-06 17:38:46
609,Santiago,CL,-33.4569,-70.6483,81.28,25,0,6.91,clear sky,2021-11-06 17:36:52
610,Kasongo-Lunda,CD,-6.4667,16.8167,73.47,94,95,2.46,light rain,2021-11-06 17:38:46
611,Inhambane,MZ,-23.865,35.3833,76.98,88,40,10.36,scattered clouds,2021-11-06 17:38:47
612,Portland,US,45.5234,-122.6762,52.11,85,75,4.0,broken clouds,2021-11-06 17:38:47
613,Iskateley,RU,67.6803,53.1512,33.1,98,100,7.92,overcast clouds,2021-11-06 17:38:48
614,Menongue,AO,-14.6585,17.691,74.07,49,88,1.32,overcast clouds,2021-11-06 17:38:48
615,Senneterre,CA,48.3835,-77.2328,46.62,74,82,12.44,broken clouds,2021-11-06 17:38:49
616,Polson,US,47.6936,-114.1632,43.43,59,88,5.82,overcast clouds,2021-11-06 17:38:49
617,Kaluga,RU,54.5,35.5,44.11,75,68,17.49,broken clouds,2021-11-06 17:38:49
618,Ucluelet,CA,48.9329,-125.5528,42.1,93,100,4.72,overcast clouds,2021-11-06 17:38:50
619,Fukuma,JP,33.7667,130.4667,62.15,66,9,8.16,clear sky,2021-11-06 17:38:51
620,Misratah,LY,32.3754,15.0925,77.41,61,67,21.14,broken clouds,2021-11-06 17:38:52
621,Inirida,CO,3.8653,-67.9239,90.03,54,87,0.76,overcast clouds,2021-11-06 17:38:52
622,Mabopane,ZA,-25.4977,28.1007,78.75,50,67,19.26,light rain,2021-11-06 17:38:52
623,Linxia,CN,35.6003,103.2064,15.64,84,100,1.66,overcast clouds,2021-11-06 17:38:53
624,Zheleznodorozhnyy,RU,55.7503,38.0042,45.21,69,84,13.22,broken clouds,2021-11-06 17:38:53
625,Makokou,GA,0.5738,12.8642,71.31,99,100,1.03,overcast clouds,2021-11-06 17:38:54
626,Fukue,JP,32.6881,128.8419,66.34,69,45,19.6,scattered clouds,2021-11-06 17:38:54
627,Banda Aceh,ID,5.5577,95.3222,77.11,89,100,4.03,light rain,2021-11-06 17:38:54
628,Lasa,IT,46.6166,10.7002,38.28,65,1,1.19,clear sky,2021-11-06 17:38:55
629,Rapid City,US,44.0805,-103.231,73.11,26,82,5.99,broken clouds,2021-11-06 17:34:07
630,Pilar,BR,-9.5972,-35.9567,91.33,50,42,11.01,scattered clouds,2021-11-06 17:38:56
631,Pathalgaon,IN,22.5667,83.4667,61.61,58,30,3.24,scattered clouds,2021-11-06 17:38:56
632,Mattru,SL,7.6244,-11.8332,78.62,91,67,4.29,light rain,2021-11-06 17:38:56
633,Hobyo,SO,5.3505,48.5268,81.01,66,30,11.7,scattered clouds,2021-11-06 17:38:57
634,Lukulu,ZM,-14.3707,23.242,85.98,23,84,3.91,broken clouds,2021-11-06 17:38:57
635,Teya,RU,60.3778,92.6267,23.72,91,98,9.01,overcast clouds,2021-11-06 17:38:58
636,Awbari,LY,26.5921,12.7805,78.19,19,15,12.08,few clouds,2021-11-06 17:38:58
637,Haapiti,PF,-17.5667,-149.8667,80.33,75,50,7.36,light rain,2021-11-06 17:38:58
638,Zhuhai,CN,22.2769,113.5678,79.86,88,20,3.44,light rain,2021-11-06 17:37:33
639,Mahibadhoo,MV,3.7833,72.9667,83.01,70,90,15.52,overcast clouds,2021-11-06 17:38:59
640,Biskamzha,RU,53.4497,89.5272,19.72,82,100,6.26,overcast clouds,2021-11-06 17:39:00
641,Mitsamiouli,KM,-11.3847,43.2844,80.89,78,20,2.3,few clouds,2021-11-06 17:39:00
642,Port Moresby,PG,-9.4431,147.1797,76.42,94,20,3.44,few clouds,2021-11-06 17:39:01
643,Tabuk,PH,17.4189,121.4443,74.41,94,36,1.19,scattered clouds,2021-11-06 17:39:01
644,Langsa,ID,4.4683,97.9683,75.51,96,100,2.59,heavy intensity rain,2021-11-06 17:39:02
645,Gloversville,US,43.0528,-74.3438,50.41,66,1,6.91,clear sky,2021-11-06 17:39:03
646,Ozark,US,37.0209,-93.206,59.32,61,0,1.01,clear sky,2021-11-06 17:36:52
647,Middelburg,ZA,-25.7751,29.4648,64.83,71,71,14.52,light rain,2021-11-06 17:39:04
648,High Level,CA,58.5169,-117.136,32.11,100,90,0.0,light snow,2021-11-06 17:39:04
649,Alekseyevsk,RU,57.8406,108.3492,23.25,93,100,12.19,light snow,2021-11-06 17:39:04
650,Arlit,NE,18.7369,7.3853,88.34,11,0,7.81,clear sky,2021-11-06 17:39:05
651,Jiuquan,CN,39.7432,98.5174,9.36,54,0,5.82,clear sky,2021-11-06 17:39:05
652,Port Hardy,CA,50.6996,-127.4199,41.0,100,75,3.44,broken clouds,2021-11-06 17:39:06
653,Maltahohe,NA,-24.8333,16.9833,75.74,10,58,15.21,broken clouds,2021-11-06 17:39:06
654,Aksarka,RU,66.5606,67.7975,33.67,97,100,15.52,overcast clouds,2021-11-06 17:39:06
655,Mweka,CD,-4.85,21.5667,75.24,77,100,0.98,light rain,2021-11-06 17:39:07
656,Batemans Bay,AU,-35.7167,150.1833,64.2,89,93,4.7,light rain,2021-11-06 17:39:07
657,Prado,BR,-17.3411,-39.2208,78.71,68,95,10.6,overcast clouds,2021-11-06 17:39:08
658,Bubaque,GW,11.2833,-15.8333,84.52,72,45,12.01,scattered clouds,2021-11-06 17:39:08
659,Sterling,US,39.0062,-77.4286,57.13,48,40,1.01,scattered clouds,2021-11-06 17:39:09
660,Novoasbest,RU,57.7422,60.2877,35.85,63,100,15.5,overcast clouds,2021-11-06 17:39:09
661,San Jeronimo,PE,-11.9472,-75.2829,63.63,48,61,5.5,broken clouds,2021-11-06 17:39:09
662,Romny,UA,50.751,33.4747,42.6,79,6,8.37,clear sky,2021-11-06 17:39:10
663,San Pedro Ayampuc,GT,14.7867,-90.4511,75.04,62,88,6.26,overcast clouds,2021-11-06 17:39:10
664,Zhanakorgan,KZ,43.9098,67.2495,34.63,21,0,7.85,clear sky,2021-11-06 17:39:11
665,Huarmey,PE,-10.0681,-78.1522,70.7,73,58,12.39,broken clouds,2021-11-06 17:39:11
666,Tahta,EG,26.7693,31.5021,78.28,37,0,6.67,clear sky,2021-11-06 17:39:12
667,Letlhakeng,BW,-24.0944,25.0298,79.93,36,100,8.46,overcast clouds,2021-11-06 17:39:12
668,Ixtapa,MX,20.7,-105.2,87.64,56,3,4.61,clear sky,2021-11-06 17:39:12
669,Sainte-Marie,RE,-20.8968,55.5496,75.36,73,0,9.22,clear sky,2021-11-06 17:39:13
670,Phagwara,IN,31.2178,75.7694,66.54,41,0,5.23,clear sky,2021-11-06 17:39:14
671,Lagos,NG,6.5833,3.75,84.52,85,90,5.88,overcast clouds,2021-11-06 17:39:14
672,Los Llanos De Aridane,ES,28.6585,-17.9182,67.75,67,75,10.0,broken clouds,2021-11-06 17:39:14
673,Taoudenni,ML,22.6783,-3.9836,83.75,16,0,6.33,clear sky,2021-11-06 17:39:15
674,Tondano,ID,1.3038,124.9112,68.09,93,67,1.66,broken clouds,2021-11-06 17:39:15
675,Bonthe,SL,7.5264,-12.505,81.61,78,57,6.13,broken clouds,2021-11-06 17:39:16
676,Thayetmyo,MM,19.3167,95.1833,74.32,92,3,3.27,clear sky,2021-11-06 17:39:16
677,Saint-Paul,RE,-21.0096,55.2707,75.31,93,7,1.01,clear sky,2021-11-06 17:36:27
678,Nha Trang,VN,12.25,109.1833,80.6,92,94,5.19,overcast clouds,2021-11-06 17:36:53
679,Phek,IN,25.6667,94.5,43.92,97,26,1.34,scattered clouds,2021-11-06 17:39:17
680,Kidal,ML,18.4411,1.4078,89.46,13,4,3.8,clear sky,2021-11-06 17:39:17
681,Ishigaki,JP,24.3448,124.1572,77.81,73,66,11.86,broken clouds,2021-11-06 17:39:18
682,Mujiayingzi,CN,42.1167,118.7833,17.26,95,100,7.38,snow,2021-11-06 17:39:18
683,Bagdarin,RU,54.4333,113.6,6.82,80,87,2.93,overcast clouds,2021-11-06 17:39:18
684,Codrington,AU,-38.2667,141.9667,52.27,67,100,8.48,overcast clouds,2021-11-06 17:39:19
685,Langham,CA,52.3668,-106.9679,40.01,58,3,10.49,clear sky,2021-11-06 17:39:19
686,La Paz,BO,-16.5,-68.15,62.58,36,75,4.61,broken clouds,2021-11-06 17:36:02
687,Galle,LK,6.0367,80.217,78.94,85,100,12.95,overcast clouds,2021-11-06 17:39:20
688,Penzance,GB,50.1186,-5.5371,56.08,90,62,25.95,broken clouds,2021-11-06 17:39:20
689,Kibre Mengist,ET,5.8833,38.9833,59.4,95,99,1.41,light rain,2021-11-06 17:39:21
690,Paracuru,BR,-3.41,-39.0306,87.82,63,48,12.82,scattered clouds,2021-11-06 17:39:21
691,Gobo,JP,33.8833,135.15,60.78,67,100,10.85,overcast clouds,2021-11-06 17:39:22
692,Mehendiganj,BD,22.8167,90.5333,70.3,65,11,6.44,few clouds,2021-11-06 17:39:22
693,Olafsvik,IS,64.8945,-23.7142,35.37,88,100,21.99,moderate rain,2021-11-06 17:39:22
694,Pedernales,DO,18.0384,-71.744,85.71,61,16,2.66,few clouds,2021-11-06 17:39:23
695,Kristiinankaupunki,FI,62.2743,21.376,41.65,70,22,15.75,few clouds,2021-11-06 17:39:23
696,Erbaa,TR,40.6689,36.5675,48.99,60,6,2.01,clear sky,2021-11-06 17:39:24
697,Quang Ngai,VN,15.1167,108.8,73.45,92,29,3.27,scattered clouds,2021-11-06 17:39:24
698,Wanaka,NZ,-44.7,169.15,51.12,73,22,1.01,few clouds,2021-11-06 17:39:25
699,Smithers,CA,54.7804,-127.1743,30.52,86,20,2.3,few clouds,2021-11-06 17:39:25
700,Golden,US,39.7555,-105.2211,74.88,13,40,1.99,scattered clouds,2021-11-06 17:39:26
701,Kungurtug,RU,50.5994,97.5228,2.05,95,94,1.34,overcast clouds,2021-11-06 17:39:26
702,Auki,SB,-8.7676,160.7034,77.27,81,27,4.29,scattered clouds,2021-11-06 17:39:27
703,Havoysund,NO,70.9963,24.6622,35.83,61,100,14.9,overcast clouds,2021-11-06 17:39:27
704,Balabac,PH,7.9868,117.0645,81.23,83,84,7.99,broken clouds,2021-11-06 17:39:28
705,Pandharpur,IN,17.6667,75.3333,76.73,47,70,10.49,broken clouds,2021-11-06 17:39:28
706,Podgorica,ME,42.4411,19.2636,62.38,82,0,3.44,clear sky,2021-11-06 17:39:28
707,Saint Anthony,US,45.0205,-93.218,62.78,54,1,1.01,clear sky,2021-11-06 17:39:29
708,Kushiro,JP,42.975,144.3747,47.82,90,89,9.15,overcast clouds,2021-11-06 17:34:33
709,Rio Gallegos,AR,-51.6226,-69.2181,62.65,39,40,6.91,scattered clouds,2021-11-06 17:39:29
710,Jinchang,CN,38.4953,102.1739,17.19,41,58,7.43,broken clouds,2021-11-06 17:39:30
711,Manyana,BW,-23.4,21.7167,87.26,12,54,6.13,broken clouds,2021-11-06 17:39:30
712,Irbeyskoye,RU,55.6428,95.4522,29.07,73,100,14.88,overcast clouds,2021-11-06 17:39:31
713,Kedgwick,CA,47.6446,-67.3434,45.84,57,17,10.29,few clouds,2021-11-06 17:39:31
714,Angoram,PG,-4.0625,144.0661,73.33,99,97,1.32,overcast clouds,2021-11-06 17:39:32
715,Smirnykh,RU,49.75,142.8333,22.75,60,67,17.85,broken clouds,2021-11-06 17:39:32
